place,lat,lon,addr,id
69120 Heidelberg,49.4164485,8.68880654867968,"Neuenheim, Heidelberg, Regierungsbezirk Karlsruhe, Baden-Württemberg, 69120, Germany",151274321
Aarau,47.3927146,8.0444448,"Aarau, Bezirk Aarau, Aargau, 5000, Switzerland",151329375
Aarhus C,56.1496278,10.2134046,"Aarhus, Aarhus Municipality, Central Denmark Region, Denmark",133615
Aberdeen,57.1452452,-2.0913745,"Aberdeen, Aberdeenshire, Scotland, United Kingdom",113817
Abidjan,5.4091179,-4.0422099,"Abidjan, Côte d'Ivoire",151537515
Abomey-Calavi,6.4153695,2.30622836336264,"Abomey-Calavi, Atlantique, Benin",151484207
Abudja,9.0764785,7.398574,"Abuja, Nigeria",ChIJ2S_WTF90ThARK6EOorQXvVM
Accra,5.5600141,-0.2057437,"Accra, Accra Metropolitan, Greater Accra Region, Ghana",149812
Accra-Legon,5.6199791,-0.173208803746807,"Accra Mall, Spintex Road, East Legon, Accra, Accra Metropolitan, Greater Accra Region, 2335, Ghana",2599067982
Achimota,5.6242019,-0.2276807,"Achimota, Ga East, Greater Accra Region, Ghana",3665587
Addis Ababa,9,38.75,"Addis Ababa, Ethiopia",151333727
Affoltern am Albis,47.2782467,8.4521518,"Affoltern am Albis, Bezirk Affoltern, Zurich, Switzerland",151338270
Aix-en-Provence,43.5298424,5.4474738,"Aix-en-Provence, Bouches-du-Rhône, Provence-Alpes-Côte d'Azur, Metropolitan France, 13090;13100, France",151143804
Aix-en-Provence cedex,43.529742,5.447427,"Aix-en-Provence, France",ChIJWRK5BKONyRIRo4i2yL5TuVw
Akosombo,6.30018465,0.058045303207964,"Akosombo Dam, Koforidua, Eastern Region, Ghana",123743822
Alicante,38.3459963,-0.4906855,"Alicante, Spain",ChIJS6udO9o1Yg0R44ELrHKofR0
Allschwil,47.5517277,7.5361588,"Allschwil, Basel-Landschaft, 4123, Switzerland",151329325
Almaty,43.2220146,76.8512485,"Almaty, Kazakhstan",ChIJq8vFFn1ugzgRdm2YrY9mRD0
Alnarp,55.6576066,13.0834259,"Alnarp, Lomma, Skåne, Götaland, Sweden",745737
Altusried,47.8052615,10.2136981,"Altusried, Landkreis Oberallgäu, Swabia, Free State of Bavaria, Germany",151254529
Amsterdam,52.3702157,4.8951679,"Amsterdam, Netherlands",ChIJVXealLU_xkcRja_At0z9AGY
Ankara,39.9220732,32.853758,"Ankara, Çankaya, Ankara, Central Anatolia Region, Turkey",125780
Antananarivo,-18.9100122,47.5255809,"Antananarivo, Province d’Antananarivo, Madagascar",149710
Antanarivo,5.285878,-3.9537567,"Boulevard Antanarivo, Koumassi, Abidjan, 01BP2114ABJ01, Côte d'Ivoire",60031579
Antwerpen,51.2211097,4.3997081,"Antwerp, Flanders, Belgium",151141144
Argonne,45.659921,-88.8794144,"Argonne, Forest County, Wisconsin, United States of America",453353
Arnhem,52.0056642,5.87623450776413,"Arnhem, Stadsregio Arnhem Nijmegen, Gelderland, Netherlands, The Netherlands",151187156
"Ashburn, Virginia",39.0437192,-77.4874899,"Ashburn, Loudoun County, Virginia, United States of America",2643946877
Athens,37.9841493,23.7279843,"Athens, Municipality of Athens, Regional Unit of Central Athens, Attica, Attica Administration, Greece",102560
Atlanta,33.7489954,-84.3879824,"Atlanta, GA, USA",ChIJjQmTaV0E9YgRC2MLmS_e_mY
"Atlanta, GA",33.7489954,-84.3879824,"Atlanta, GA, USA",ChIJjQmTaV0E9YgRC2MLmS_e_mY
Aubière,45.751175,3.110678,"63170 Aubière, France",ChIJESA5nl4c90cRIMzly688CQQ
Augsburg,48.3668041,10.8986971,"Augsburg, Swabia, Free State of Bavaria, Germany",151141396
Austin,30.267153,-97.7430608,"Austin, TX, USA",ChIJLwPMoJm1RIYRetVp1EtGm10
AV Groningen,53.2197413,6.6092453,"Wismarweg 28, 9723 HB Groningen, Netherlands",ChIJK5lO2MfSyUcRNI_57XzO8nQ
AZ1073 Baku,40.3677517,49.8166841,"Yasamal, Baku, Bakı İnzibati Ərazisi, AZ1073, Azerbaijan",152094518
Baden,40.6350668,-80.2281159,"Baden, PA, USA",ChIJ8Rq7vTBkNIgRFgdyZEBU0pY
Baku,40.3925137,49.8466787,"Baku, Bakı İnzibati Ərazisi, Azerbaijan",151427251
Baltimore,39.2908608,-76.6108073,"Baltimore, Maryland, United States of America",2635552568
Bamberg,49.8926723,10.8876149,"Bamberg, Upper Franconia, Free State of Bavaria, Germany",17141058
Banbury,52.0601807,-1.3402795,"Banbury, Oxfordshire, South East, England, United Kingdom",107794
Bangalore,12.9791198,77.5912997,"Bengaluru, Bangalore Urban, Karnataka, 560001, India",2637189840
Banja Luka,44.7719893,17.1898768,"Banja Luka, City of Banja Luka, Republika Srpska, Bosnia and Herzegovina",710825
Banyuls-sur-Mer,42.4794084,3.1275893,"Banyuls-sur-Mer, Céret, Pyrénées-Orientales, Languedoc-Roussillon, Metropolitan France, 66650, France",151130824
Barcelona,41.3850639,2.1734035,"Barcelona, Spain",ChIJ5TCOcRaYpBIRCmZHTz37sEQ
Barnaul,53.3474212,83.7784296,"Barnaul, городской округ Барнаул, Altai Krai, Siberian Federal District, 656000, Russian Federation",151313954
Basel,47.5581077,7.5878261,"Basel, Basel-City, Switzerland",151329330
Batavia,48.5740136,13.4606445,"Passau, Lower Bavaria, Free State of Bavaria, Germany",635621
Beauport,46.8594456,-71.1932496,"Beauport, Quebec, Canada",2676893927
Beerse,51.3134921,4.83757045966409,"Beerse, Turnhout, Antwerp, Flanders, Belgium",2587976120
Beijing,39.9059631,116.391248,"Beijing, Dongcheng District, Beijing, 100010, China",121010
Beirut,33.8959203,35.47843,"Beirut, Beirut Governorate, Lebanon",2666715413
Belgrade,44.8178787,20.4568089,"Belgrade, Central Serbia, 11000, Serbia",2593379591
Bellinzona,46.1918617,9.0204562,"Bellinzona, Circolo di Bellinzona, Distretto di Bellinzona, Ticino, Switzerland",151329696
Bellville,29.9502253,-96.2571858,"Bellville, Texas, United States of America",61596886
Belvaux,48.3244391,6.1664934,"Belvaux, Mazirot, Neufchâteau, Vosges, Lorraine, Metropolitan France, 88500, France",2660058042
Benin,9.5293472,2.2584408,Benin,151179879
Bergen,60.3943457,5.3258853,"Bergen, Hordaland, Norway",2689154008
Berkeley,37.8708393,-122.2728639,"Berkeley, Alameda County, California, United States of America",151472895
Berlin,52.5170365,13.3888599,"Berlin, Germany",2630016742
Berlin-Dahlem,52.4493661,13.276798553416,"Political Science, 21, Ihnestraße, Dahlem, Steglitz-Zehlendorf, Berlin, 14195, Germany",2632993580
Bern,46.9482759,7.4515008,"Bern, Verwaltungskreis Bern-Mittelland, Bern, Switzerland",151328070
Bern UPD,46.96612025,7.48300189018832,"UPD - Universitäre Psychiatrische Dienste Bern, 111, Bolligenstrasse, Beundenfeld, Bern, Verwaltungskreis Bern-Mittelland, Bern, 3006, Switzerland",2642415044
Bern-Wabern,46.9230742,7.4605554,"Klein-Wabern, Seftigenstrasse, Wabern, Köniz, Verwaltungskreis Bern-Mittelland, Bern, 3084, Switzerland",2614789473
Besançon,47.237829,6.0240539,"25000 Besançon, France",ChIJCxPu8PpijUcRMO0TszTOCQQ
Bethesda,38.984652,-77.0947092,"Bethesda, MD, USA",ChIJLQIkarfLt4kRDc0ravd5siY
Bhavnagar,21.7718836,72.1416449,"Bhavnagar, Bhāvnagar, Gujarat, 364001, India",693971
Bhubaneswar,20.2603328,85.8393432,"Bhubaneswar, Khordha, Odisha, 751001, India",11084516
Biel/Bienne,47.1420451,7.2585667,"Biel/Bienne, Verwaltungskreis Biel/Bienne, Verwaltungsregion Seeland, Bern, Switzerland",151328517
Bielefeld,52.010877,8.540868,"Bielefeld, Regierungsbezirk Detmold, North Rhine-Westphalia, Germany",151142019
Bilkent Ankara,39.881951,32.7584164,"Bilkent, Ankara, Çankaya, Ankara, Central Anatolia Region, Turkey",30725145
Birmensdorf ZH,47.35195245,8.43963311704182,"Birmensdorf (ZH), Bezirk Dietikon, Zurich, 8903, Switzerland",151327932
Birmensdorf ZH Kaserne,47.3591073,8.4300158,"Kaserne Reppischtal, 8903 Birmensdorf, Switzerland",ChIJ-UFpQbcOkEcRZkDzZGMdp4w
Birmingham,52.4776875,-1.8948516,"Birmingham, West Midlands, England, United Kingdom",2627804276
Birzeit,31.97281155,35.196266393071,"Birzeit, Bir Ziet rafugee camp, Bir Zeit, Ramallah and al-Bireh Governorate, Area B, West Bank, West Bank and Gaza Strip",143455682
Bishkek,42.8767446,74.6069949,"Bishkek, Alamudun District, Бишкек, Kyrgyzstan",149188
Bloemfontein,-29.1163947,26.2154956,"Bloemfontein, Mangaung Metropolitan Municipality, Free State, RSA",143893
Bobo Dioulasso,11.1757783,-4.2957591,"Bobo-Dioulasso, Houet, Upper-Basins, Burkina Faso",778062
Bobo-Dioulasso,11.1757783,-4.2957591,"Bobo-Dioulasso, Houet, Upper-Basins, Burkina Faso",778062
Bochum,51.482321,7.2187465,"Bochum, Regierungsbezirk Arnsberg, North Rhine-Westphalia, Germany",644788
Bogor,-6.5962986,106.7972421,"Bogor, West Java, Indonesia",1514088
Bogota,4.5980478,-74.0760867,"Bogota, Vereda Paraguay, Distrito Capital de Bogotá, Colombia",6554928
Bogotá B.C.,4.7109886,-74.072092,"Bogotá, Bogota, Colombia",ChIJKcumLf2bP44RFDmjIFVjnSM
Bologna,44.4936714,11.3430347,"Bologna, BO, Emilia-Romagna, Italy",151135452
Bologne,44.4936714,11.3430347,"Bologna, BO, Emilia-Romagna, Italy",151135452
Bonn,50.7358511,7.1006599,"Bonn, Regierungsbezirk Köln, North Rhine-Westphalia, Germany",131664
Bordeaux,44.841225,-0.5800364,"Bordeaux, Gironde, Aquitaine, Metropolitan France, 33000;33100;33300;33800, France",151146815
Boston,42.3604823,-71.0595678,"Boston, Suffolk County, Massachusetts, United States of America",151408289
Boukané,NA,NA,NA,NA
Bramois,46.2321819,7.4038983,"Bramois, Sion, Valais - Wallis, 1967, Switzerland",972516
Brasov,45.6523093,25.6102746,"Brasov, Brașov, Romania",828172
Bratislava,48.1359085,17.1597440625,"Bratislava, Region of Bratislava, Slovakia",151343908
Braunschweig,52.2639962,10.5252669,"Brunswick, Lower Saxony, 38100, Germany",165156
Bremen,53.0792962,8.8016936,"Bremen, Germany",ChIJNePuDBAosUcRUd83-VyI6MI
Bremerhaven,53.5395845,8.5809425,"Bremerhaven, Germany",ChIJYU4gxBGxtkcRoHMAY3fPJgQ
Brisbane,-27.4689682,153.0234991,"Brisbane, QLD, Australia",16522228
Bristol,51.453493,-2.5973937,"Bristol, City of Bristol, South West England, England, United Kingdom",2685654054
Brno,49.1922443,16.6113382,"Brno, okres Brno-město, Jihomoravský kraj, Southeast, Czech Republic",151234403
Bruderholz,50.0861236,6.590606,"Bruderholz, Bitburger Land, Eifelkreis Bitburg-Prüm, Rhineland-Palatinate, Germany",1402928
Brugg AG,47.4824633,8.2085662,"Brugg, Bezirk Brugg, Aargau, Switzerland",151329532
Brussels,50.8465565,4.351697,"Brussels, Brussels-Capital, Belgium",17081925
Bruxelles,50.84404145,4.36720169448285,"Brussels, Ville de Bruxelles - Stad Brussel, Brussels-Capital, 1000, Belgium",151429011
Bucharest,44.4361414,26.1027202,"Bucharest, Sector 2, Bucharest, Romania",323780
Bucuresti,44.4361414,26.1027202,"Bucharest, Sector 2, Bucharest, Romania",323780
Budapest,47.4983815,19.0404707,"Budapest, Central Hungary, Közép-Magyarország, Hungary",151278568
Buffalo,42.8867166,-78.8783922,"Buffalo, Aurora, Erie County, New York, United States of America",151172528
Bujumbura,-3.3638125,29.3675028,"Bujumbura, Bujumbura Mairie, Burundi",275977
"Bulaksumur, Yogyakarta",-7.7661066,110.3786449,"Polsek Bulaksumur, Jalan Persatuan, Catur Tunggal, Catur tunggal, Depok, Sleman Regency, Special Region of Yogyakarta, 55281, Indonesia",38230040
Butha-Buthe,-28.8029541,28.5638395,"Butha-Buthe District, Lesotho",2588289736
Cacak,43.8888275,20.3447317,"Cacak, Cacak City, Moravica District, Sumadija and Western Serbia, Central Serbia, Serbia",750157
Cadenazzo,46.1509697,8.9458703,"Cadenazzo, Circolo di Giubiasco, Distretto di Bellinzona, Ticino, Switzerland",151330002
Cambridge,52.2033051,0.124862,"Cambridge, Cambridgeshire, East of England, England, United Kingdom",72404332
"Cambridge, MA",42.3772742,-71.130573581705,"Cambridge, Middlesex County, Massachusetts, United States of America",151357196
"Candiolo, Torino",44.959244,7.601722,"Candiolo, TO, Piemont, Italy",151136727
Canobbio,46.03721145,8.96715699495065,"Canobbio, Circolo di Vezia, Distretto di Lugano, Ticino, 6952, Switzerland",151330526
"Canterbury, Kent",51.2800275,1.0802533,"Canterbury, Kent, South East, England, United Kingdom",151239602
"Cantonments, Accra",5.5841563,-0.1692489,"Cantonments, Accra, Accra Metropolitan, Greater Accra Region, Ghana",169979
Cape Town,-33.9289917,18.417396,"Cape Town, City of Cape Town, Western Cape, RSA",203734
Carouge,46.1846691,6.1396839,"Carouge, Geneva, 1227, Switzerland",632539
Carouge GE,46.1846691,6.1396839,"Carouge, Geneva, 1227, Switzerland",632539
CD Delft,52.010574,4.360186,"Brabantse Turfmarkt 83, 2611 CM Delft, Netherlands",ChIJERw6PcK1xUcRyX79oCpu_JA
Chandigarh,30.7351539,76.7705033208026,"Chandigarh, India",151362712
Charlestown,43.2386868,-72.4245329,"Charlestown, Sullivan County, New Hampshire, United States of America",151385109
Chêne-Bourg,46.19735,6.19731,"Chêne-Bourg, Switzerland",ChIJFW7Tf-RvjEcR23NXiu9RlPA
Chenove,47.2932,5.00308,"Chenôve, Dijon, Côte-d'Or, Burgundy, Metropolitan France, 21300, France",151160052
Chiba,35.2999464,140.198195872677,"Chiba, Kanto, Japan",151456494
Chicago,41.8755546,-87.6244212,"Chicago, Cook County, Illinois, United States of America",151153056
Chishinau,47.0104529,28.8638102,"Chisinau, Moldova",ChIJoWm3KDZ8yUARPN1JVzDW0Tc
Chisinau,47.0122737,28.8605936,"Chișinău, Municipiul Chișinău, Moldova",357186
Chur,46.855515,9.5254066,"Chur, Plessur, Grisons, Switzerland",151329184
Clermont-Ferrand,45.7774551,3.0819427,"Clermont-Ferrand, Puy-de-Dôme, Auvergne, Metropolitan France, 63000;63100, France",151148170
Cluj-Napoca,46.7693367,23.5900604,"Cluj-Napoca, Cluj, Romania",203356
Colchester,51.8931303,0.9046293,"Colchester, Essex, East of England, England, United Kingdom",151143330
Cologne,50.9383611,6.9599738,"Cologne, Regierungsbezirk Köln, North Rhine-Westphalia, 50667-51149, Germany",2632199495
Colombo,6.934287,79.8532704,"Colombo, Colombo District, Western Province, Sri Lanka",2661543273
Colombus,51.3085861,3.1445946,"Colombus, Scharebrugwijk, Uitkerke, Blankenberge, Brugge, West Flanders, Flanders, 8370, Belgium",93565703
Columbus,39.9611755,-82.9987942,"Columbus, OH, USA",ChIJcd6QucGJOIgRM7Wxz_hmMuQ
Contone,46.1487696,8.9261455,"Contone, Circolo del Gambarogno, Distretto di Locarno, Ticino, 6594, Switzerland",275163
Copenhagen,55.6867243,12.5700724,"Copenhagen, Copenhagen Municipality, Capital Region of Denmark, Denmark",107698
Copenhagen O,39.4607238,-0.3737106,"Copenhagen, 8, Carrer del Literat Azorín, Russafa, Eixample, Trilladora de Pasiego, Comarca de València, Valencia, Valencian Community, 46006, Spain",29202187
Cotonou,6.367682,2.4252292,"Cotonou, 7ème Arrondissement, Cotonou, Littoral, Benin",18384892
Cottbus,51.7567447,14.3357307,"Cottbus - Chóśebuz, Cottbus, Brandenburg, Germany",2590495387
Coventry,52.408106,-1.510456,"Coventry, West Midlands, England, United Kingdom",2658981014
Coventry CV1FB,39.99737305,-83.1591514578883,"Coventry, Columbus, Franklin County, Ohio, 43026, United States of America",151209771
Crawley,51.1103444,-0.1801094,"Crawley, West Sussex, South East, England, United Kingdom",151150640
Creteil Paris,48.78649845,2.45813783873224,"CRETEIL, Rue Maurice Demenitroux, Chenevier - Déménitroux, Créteil, Val-de-Marne, Ile-de-France, Metropolitan France, 94000, France",77511704
Daejeon,36.3326329,127.3845762,"Daejeon, South Korea",151417245
"Dagnolla, Kandy",7.268907,80.6118768,"Dangolla, Kandy, Sri Lanka",ChIJ7WUJ9Lho4zoRV_wWq7QUeMc
Dalian,38.920716,121.6388678,"Dalian, Ganjingzi District, Dalian City, Liaoning, China",23268503
Damaskus,33.5130695,36.3095814,"Damascus, Rif Dimashq, Syria",11362050
Dar es Salaam,-6.8142737,39.2803756,"Dar es Salaam, Coastal, Tanzania",149238
Davis,38.545379,-121.7445835,"Davis, Yolo County, California, United States of America",61037779
Davos Dorf,46.8048524,9.8387391,"Davos Dorf, Davos, Prättigau/Davos, Grisons, Switzerland",126731
Davos Platz,46.7947944,9.8181248,"Davos Platz, Davos, Prättigau/Davos, Grisons, 7270, Switzerland",631510
Debrecen,47.531399,21.6259782,"Debrecen, Debreceni járás, Hajdú-Bihar, Northern Great Plain, Great Plain and North, Hungary",151321863
Delémont,47.365837,7.3451555,"Delémont, Switzerland",ChIJ1XrBwybmkUcRXbjjLhn1hcE
Delft,51.99959935,4.3626348568476,"Delft, MRDH, South Holland, Netherlands, The Netherlands",151186923
Delhi,28.6517178,77.2219388,"Delhi, India",29824580
Dhaka,23.7593572,90.3788136,"Dhaka, Dhaka Division, Bangladesh",2641250582
Dharan,26.8126101,87.28381,"Dharan, Sunsari, Koshi, Eastern Region, Nepal",2682056352
Dijon,47.3215806,5.0414701,"Dijon, Côte-d'Or, Burgundy, Metropolitan France, 21000, France",151143645
"Diliman, Quezon City",14.6495832,121.05965,"Diliman, Quezon City, District IV, Quezon City, Metro Manila, Philippines",2705913776
Dire Dawa,9.5944718,41.85572,"Dire Dawa, Ethiopia",1319732
Doha,25.2854473,51.5310398,"Doha, Qatar",ChIJf-jc_zTFRT4RsdTPeJ8x2UQ
Dortmund,51.5142273,7.4652789,"Dortmund, Regierungsbezirk Arnsberg, North Rhine-Westphalia, Germany",122356
Dresden,51.0504088,13.7372621,"Dresden, Germany",ChIJqdYaECnPCUcRsP6IQsuxIQQ
Dübendorf,47.3971476,8.6180128,"Dübendorf, Switzerland",ChIJQfPMn26hmkcRolibZx05dM8
Dunedin,-45.8739282,170.503488,"Dunedin, Dunedin City, Otago, New Zealand",11014844
Durban,-29.8618254,31.0099095,"Durban, eThekwini Metropolitan Municipality, KwaZulu-Natal, RSA",149794
Durham,54.7764152,-1.5758539,"Durham, County Durham, North East England, England, United Kingdom",114307
Düsseldorf,51.2277411,6.7734556,"Düsseldorf, Germany",ChIJB1lG8XvJuEcRsHMqSvxgJwQ
East Lansing,42.7369792,-84.4838654,"East Lansing, MI, USA",ChIJ86vl6nXoIogRJaZ8EfezGTs
East Melbourne,-37.8127167,144.9816799,"East Melbourne, Melbourne, City of Melbourne, Greater Melbourne, Victoria, 3000, Australia",151421817
Edinburgh,55.9495628,-3.1914972,"City of Edinburgh, Scotland, United Kingdom",151354208
Eichstätt,48.8912508,11.1899861,"85072 Eichstätt, Germany",ChIJSdqFrKQen0cRgLyL161IHgQ
Eindhoven,51.44855695,5.45012257185714,"Eindhoven, MRE, Samenwerkingsverband Regio Eindhoven, North Brabant, Netherlands, The Netherlands",151189668
Einsiedeln,47.1286095,8.7500299,"Einsiedeln, Schwyz, 8840, Switzerland",151329688
El Paso,31.7600372,-106.487287,"El Paso, El Paso County, Texas, United States of America",249631
Emmenbrücke,47.0772338,8.275637,"Emmen, Switzerland",ChIJF9Y9qb78j0cRUSXaxMLXcDU
Enschede,52.22336325,6.87059566409799,"Enschede, Regio Twente, Overijssel, Netherlands, The Netherlands",151295055
Enugu,6.4499833,7.5000007,"Enugu, Enugu North, Enugu, Nigeria",149726
Epalinges,46.547327,6.6726245,"Epalinges, District de Lausanne, Vaud, Switzerland",151330167
Erlangen,49.5981208,11.0036532,"Erlangen, Middle Franconia, Free State of Bavaria, Germany",110267
Esch-sur-Alzette,49.4967482,5.9792166,"Esch-sur-Alzette, Canton Esch-sur-Alzette, Luxembourg",151216771
Esch-sur-Alzette Belval,49.49959315,5.94616534048858,"Gare Esch Belval, CR 168, Belval, Esch-sur-Alzette, Canton Esch-sur-Alzette, 4361, Luxembourg",2668732319
Esch-sur-Alzette (Belval),49.49959315,5.94616534048858,"Gare Esch Belval, CR 168, Belval, Esch-sur-Alzette, Canton Esch-sur-Alzette, 4361, Luxembourg",2668732319
Essen,51.4570874,7.0114295,"Stadtmitte, Stadtkern, Essen, Regierungsbezirk Düsseldorf, North Rhine-Westphalia, 45127, Germany",2692520679
Ettenhausen TG,47.4780375,8.8980463,"Ettenhausen, Bezirk Münchwilen, Thurgovia, Switzerland",1307197
Exeter,50.7256471,-3.5266611,"Exeter, Devon, South West England, England, United Kingdom",151383402
Firenze,43.7698712,11.2555757,"Florence, Metropolitan City of Florence, Tuscany, Italy",151134933
Fontenay-aux-Roses,48.7911052,2.2870373,"Fontenay-aux-Roses, Antony, Hauts-de-Seine, Ile-de-France, Metropolitan France, 92260, France",151131602
Fontenay-aux-Roses CEDEX,48.789776,2.287181,"92260 Fontenay-aux-Roses, France",ChIJGfLHzLtw5kcRAD6LaMOCCwQ
Frankfurt,50.1106529,8.6820934,"Frankfurt, Regierungsbezirk Darmstadt, Hesse, Germany",147499
Frankfurt am Main,50.1106529,8.6820934,"Frankfurt, Regierungsbezirk Darmstadt, Hesse, Germany",147499
Frankfurt / Oder,52.3412273,14.549452,"Frankfurt (Oder), Brandenburg, 15230,15232,15234,15236, Germany",1031043
Frederiksberg,55.678016,12.5326186,"Frederiksberg, Frederiksberg Municipality, Capital Region of Denmark, Denmark",122949
Freiburg,47.9960901,7.8494005,"Freiburg im Breisgau, Regierungsbezirk Freiburg, Baden-Württemberg, Germany",2701210433
Freiburg i. B.,32.6178249,51.6742926,"Freiburg, District 1, Koy-e Sepahan, Isfahan, Iran",2702976492
Freiburg i. Br.,32.6178249,51.6742926,"Freiburg, District 1, Koy-e Sepahan, Isfahan, Iran",2702976492
Freiburg i.Br.,32.6178249,51.6742926,"Freiburg, District 1, Koy-e Sepahan, Isfahan, Iran",2702976492
Freiburg i. Breisgau,47.9960901,7.8494005,"Freiburg im Breisgau, Regierungsbezirk Freiburg, Baden-Württemberg, Germany",2701210433
Freiburg im Breisgau,47.9960901,7.8494005,"Freiburg im Breisgau, Regierungsbezirk Freiburg, Baden-Württemberg, Germany",2701210433
Freising,48.4008273,11.7439565,"Freising, Landkreis Freising, Upper Bavaria, Free State of Bavaria, Germany",151131013
Freising-Weihenstephan,48.3860125,11.7213761,"Westtangente Freising ( FS 44), Weihenstephan, Freising, Landkreis Freising, Upper Bavaria, Free State of Bavaria, 85354, Germany",2647669203
Fribourg,46.8033192,7.16175552542195,"Fribourg - Freiburg, Sarine District, Fribourg - Freiburg, Switzerland",151329119
Frick,47.5075081,8.0203065,"Frick, Bezirk Laufenburg, Aargau, 5070, Switzerland",151330337
Ftan,46.7951677,10.2488557,"Ftan, Inn, Grisons, 7551, Switzerland",624490
Fürth,49.4771169,10.988667,"Fürth, Germany",ChIJMQVnDHpVn0cR4Me1vjLaHgQ
Futuroscope - Poitiers,46.6703722,0.368496056428573,"Théâtre alphanumérique, Rue de Germond, Bergères, Jaunay-Clan, Poitiers, Vienne, Poitou-Charentes, Metropolitan France, 86130, France",2611993667
Gaienhofen-Hemmenh.,47.675033,8.96682,"Hemmenhofen, 78343 Gaienhofen, Germany",ChIJ54E0wLyLmkcRkHLWTbprHwo
Gainesville,29.651907,-82.3247976,"Gainesville, Alachua County, Florida, United States of America",151150873
Garching,48.2513878,11.6509662,"Garching, Landkreis München, Upper Bavaria, Free State of Bavaria, Germany",151131049
Garmisch,38.69975,-91.1549949,"Garmisch, Aspenhoff, Warren County, Missouri, 63383, United States of America",51958304
Garmisch Partenkirchen,47.4938359,11.103992,"Garmisch-Partenkirchen, Landkreis Garmisch-Partenkirchen, Upper Bavaria, Free State of Bavaria, Germany",151252685
Gattikon,47.2843053,8.5487611,"Gattikon, Thalwil, Bezirk Horgen, Zurich, 8800, Switzerland",2683964559
Genève,46.2043907,6.1431577,"Geneva, Switzerland",ChIJ6-LQkwZljEcRObwLezWVtqA
Genoa,44.4056499,8.946256,"Genoa, Metropolitan City of Genoa, Italy",ChIJrZrU3FJB0xIRCmKBGPGEaiM
Genova,35.609611,-82.568876,"63 Zillicoa St, Asheville, NC 28801, USA",ChIJmyTo3lGLWYgRZjMvNFZ_oa4
Gent,51.0538286,3.7250121,"Ghent, Gent, East Flanders, Flanders, Belgium",151247001
Georgetown,38.9076089,-77.0722585,"3700 O St NW, Washington, DC 20057, USA",ChIJa4-fzkC2t4kRgihmVAVtnRw
Ghent,51.0538286,3.7250121,"Ghent, Gent, East Flanders, Flanders, Belgium",151247001
Gif-sur-Yvette,48.7018823,2.134529,"Gif-sur-Yvette, Palaiseau, Essonne, Ile-de-France, Metropolitan France, 91190, France",151140381
Givisiez,46.814593,7.1294701,"Givisiez, Sarine District, Fribourg - Freiburg, 1762, Switzerland",151329790
Glasgow,55.864237,-4.251806,"Glasgow, UK",ChIJ685WIFYViEgRHlHvBbiD5nE
Goroka,-6.0729261,145.3943813,"Goroka, Goroka District, Eastern Highlands, Highlands Region, Papua New Guinea",2621662872
Göteborg,57.70887,11.97456,"Gothenburg, Sweden",ChIJPwdslmeOT0YRQHwOKXiQAQQ
Göttingen,51.5412804,9.9158035,"Göttingen, Germany",ChIJx8qYb7jUpEcRMD6slG2sJQQ
Göttingen-Nikolausberg,51.5636457,9.9819215,"Nikolausberg, 37077 Göttingen, Germany",ChIJe-Qph6jVpEcRcFdDG3CsJQo
Grahamstown,-33.3070589,26.5272648,"Grahamstown, Sarah Baartman District Municipality, Eastern Cape, RSA",165845
Granges-Paccot,46.823134,7.1403764,"Granges-Paccot, Sarine District, Fribourg - Freiburg, 1763, Switzerland",151328678
Graz,47.0708101,15.4382918,"Graz, Styria, Austria",151147666
Greenwich,52.0367323,1.168934,"Greenwich, Ipswich, Suffolk, East of England, England, United Kingdom",18324619
Greifswald,54.0865463,13.3923414,"Greifswald, Germany",ChIJ1yJjoaF0q0cRkIKEregaJQQ
Greifswald-Insel Riems,54.1831113,13.3630339,"Riems, Greifswald, Germany",ChIJ0-sUNDByq0cR-tauoZATiqc
Grenoble,45.182478,5.7210773,"Grenoble, Isère, Rhône-Alpes, Metropolitan France, 38000;38100, France",151145335
Groningen,53.22179255,6.5582454164798,"Groningen, Netherlands, The Netherlands",151217601
Guatemala City,14.6417889,-90.5132239,"Guatemala City, Guatemala",2617384452
Guelph,43.5461764,-80.2470591,"Guelph, Wellington County, Ontario, Canada",219506
Guildford,51.237195,-0.5811779,"Guildford, Guildford railway station subway, Guildford Park, Guildford, Surrey, South East, England, GU1 4UT, United Kingdom",109032
"Guiyang, Guizhou",26.5814112,106.7052544,"Guiyang, Nanming District, Guiyang City, Guizhou, China",679878
Gwangju,35.1491083,126.8634645,"Gwangju, South Korea",151424575
Haifa,32.8191218,34.9983856,"Haifa, Haifa District, Israel",151296236
Halle/S.,50.14768995,8.60920560852789,"Halle S, Eugen-Hartmann-Straße, Praunheim, Frankfurt, Regierungsbezirk Darmstadt, Hesse, 60488, Germany",99182583
Hamburg,53.5510846,9.9936819,"Hamburg, Germany",ChIJuRMYfoNhsUcRoDrWe_I9JgQ
Hangzhou,30.2756741,120.1504858,"Hangzhou, Gongshu District, Hangzhou City, Zhejiang, China",680167
Hannover,52.3758916,9.7320104,"Hanover, Germany",ChIJhU9JTVELsEcRIEeslG2sJQQ
Hanoi,20.9749006,105.675563063679,"Hanoi, Vietnam",151352577
Harbin,45.7656666,126.6160584,"Harbin, Daoli District, Harbin City, Heilongjiang, 150000, China",931678
Hatfield,51.7634675,-0.2258741,"Hatfield, Hertfordshire, East of England, England, United Kingdom",148100
Hauterive,46.0342762,5.3686372,"Hauterive, Nantua, Ain, Rhône-Alpes, Metropolitan France, 01640, France",15866129
Havanna,23.1379911,-82.3658562,"Havana, Centro Habana, Havana, Cuba",131453
Hawassa,7.0577443,38.4804661,"Awassa, Sidama, Southern Nations, Nationalities, and People's Region, Ethiopia",15288800
Heidelberg,49.4093608,8.6948125,"Heidelberg, Regierungsbezirk Karlsruhe, Baden-Württemberg, Germany",635781
Helsinki,60.1666277,24.9435079,"Helsinki, Helsingin seutukunta, Uusimaa, Southern Finland, Finland",151131480
Hertfordshire,51.8400523,-0.0978551422452396,"Hertfordshire, East of England, England, United Kingdom",151140625
Heverlee,50.85269645,4.67791042729876,"Heverlee, Leuven, Flemish Brabant, Flanders, 3001, Belgium",2592782903
Hinterkappelen,46.967846,7.3774383,"Hinterkappelen, Wohlen bei Bern, Verwaltungskreis Bern-Mittelland, Bern, 3032, Switzerland",2624533577
Ho,38.88900875,-77.0090433259771,"United States House of Representatives, West Terraces and Steps, Monumental Core, Capitol Hill, Washington, District of Columbia, 20301, United States of America",2614140978
Hong Kong,22.2793278,114.1628131,"Hong Kong, Central and Western District, Hong Kong Island, Hong Kong, China",2692519619
Horgen,47.260692,8.5976831,"Horgen, Bezirk Horgen, Zurich, 8810, Switzerland",151327969
Horw,47.0185008,8.3107797,"Horw, Luzern, Switzerland",151328484
Huddinge,59.2149145,18.0531788500103,"Huddinge, Landskapet Södermanland, Stockholms län, Svealand, Sweden",151215032
Hue City,34.1096766,108.5989237,"Hu, Hu County, Xi'an City, Shaanxi, China",2595897486
Iasi,47.161494,27.5840504,"Iași, Romania",357122
Ibadan,7.3786064,3.8969928,"Ibadan, Ibadan North West, Oyo, Nigeria",149806
"Ifakara, Morogoro",-8.1327178,36.6818039,"Ifakara, Kilombero, Morogoro, Coastal, Tanzania",786183
Illkirch Cédex,48.52854,7.711011,"67400 Illkirch, France",ChIJ7a783RbKlkcRyfSdGb3XNB4
Ilmenau,50.6867695,10.9142385,"Ilmenau, Ilm-Kreis, Thuringia, Germany",151169418
Indianapolis,39.7683331,-86.1583502,"Indianapolis, Marion County, Indiana, United States of America",430861
Innsbruck,47.2654296,11.3927685,"Innsbruck, Innsbruck-Stadt, Tyrol, Austria",151388550
Innsbrück,47.2692124,11.4041024,"Innsbruck, Austria",ChIJc8r44c9unUcRDZsdKH0cIJ0
Irvine,33.6856969,-117.8259819,"Irvine, Orange County, California, United States of America",151149675
Islamabad,33.6945756,73.0643744,"Islamabad, Islamabad Capital Territory, 44000, Pakistan",109498
Issy-Les-Moulineaux,48.8250508,2.273457,"Issy-les-Moulineaux, Boulogne-Billancourt, Hauts-de-Seine, Ile-de-France, Metropolitan France, 92130, France",151145506
Istanbul,41.0096334,28.9651646,"Istanbul, Fatih, Istanbul, Marmara Region, Turkey",19313418
Ithaca,42.4396039,-76.4968019,"Ithaca, Tompkins County, New York, United States of America",151172145
Ittigen,46.9790726,7.4815213,"Ittigen, Verwaltungskreis Bern-Mittelland, Bern, Switzerland",151328418
Izmir,38.4153421,27.144474,"Izmir, Aegean Region, Turkey",4059223
Jena,50.9331401,11.5833091,"Jena, Thuringia, Germany",642574
Jersualem,31.768319,35.21371,"Jerusalem, Israel",ChIJS_zBNNbXAhURy-FuRT5ib9k
Johannesburg,-26.205,28.0497222,"Johannesburg, City of Johannesburg Metropolitan Municipality, Gauteng, 2001, RSA",804030
Juba,4.8472017,31.5951655,"Juba, Central Equatoria, South Sudan",326045
Juelich,50.9220931,6.3611015,"Jülich, Kreis Düren, Regierungsbezirk Köln, North Rhine-Westphalia, Germany",151168120
Jülich,50.9224226,6.3639119,"52428 Jülich, Germany",ChIJo4phqVVZv0cR-ajVHmr_7z4
Jussy,49.7201,3.2309,"Jussy, Saint-Quentin, Aisne, Picardy, Metropolitan France, 02480, France",151485740
Kabete,-5.585542,18.8714364,"Banza-Kabete, Kwilu, Bandundu, Kwilu, Congo-Kinshasa",2721862122
Kaiserslautern,49.4432174,7.7689951,"Kaiserslautern, Rhineland-Palatinate, Germany",642435
Kampala,0.3177137,32.5813539,"Kampala, Central 2, Uganda",7231729
Karlsruhe,49.0140679,8.4044366,"Karlsruhe, Regierungsbezirk Karlsruhe, Baden-Württemberg, Germany",151141485
Kassel,51.3127114,9.4797461,"Kassel, Germany",ChIJHWx6n04_u0cRRxciWD1jhC8
Kastanienbaum,47.0130792,8.33487,"Kastanienbaum, Luzern, Switzerland",16150216
Kathmandu,27.7076762,85.3148882,"Kathmandu, Bagmati, Central Development Region, Nepal",2631505983
Katubedda,6.7973934,79.8885552,"Katubedda, Rawathawatta, Colombo District, Western Province, Sri Lanka",18890442
Kharkiv,49.9902794,36.2303893,"Kharkiv, Шевченківський район, Kharkiv city rada, Kharkiv Oblast, Ukraine",151508037
Kiel,54.3216753,10.1371858,"Kiel, Schleswig-Holstein, Germany",119203
Kiev,50.4501071,30.5240501,"Kyiv, Shevchenkivskyi district, Kyiv, 01000-06999, Ukraine",130005
Kigali,-1.92982035,30.1345381884548,"Kigali City, Rwanda",151333117
Kijitonyama,-6.7828316,39.2331823,"Kijitonyama, Dar es Salaam, Coastal, Tanzania",2662740747
Kilchberg ZH,47.3254261,8.54837504620962,"Kilchberg (ZH), Bezirk Horgen, Zurich, 8802, Switzerland",151327954
Kinshasa,-4.3217055,15.3125974,"Kinshasa, Congo-Kinshasa",144851
Kiruna,67.8550724,20.2255482,"Kiruna, Norrbottens län, Norrland, Sweden",210368
Kitwe,-12.8104186,28.2068361,"Kitwe, Copperbelt Province, Zambia",12328757
Klagenfurt,46.6228162,14.3079604,"Klagenfurt, Klagenfurt (Stadt), Carinthia, Austria",161570
Kleve,51.7854839,6.13136741533014,"Cleves, Kreis Kleve, Regierungsbezirk Düsseldorf, North Rhine-Westphalia, Germany",151524766
Klosterneuburg,48.29893135,16.2905342797434,"Gemeinde Klosterneuburg, Bezirk Wien-Umgebung, Lower Austria, 3400, Austria",151150662
Köln,50.937531,6.9602786,"Cologne, Germany",ChIJ5S-raZElv0cR8HcqSvxgJwQ
Konstanz,47.6779496,9.1732384,"Konstanz, Germany",ChIJWx8MOBv2mkcR0JnfpbdrHwQ
Kosice,48.7172272,21.2496774,"Košice, Region of Košice, Eastern Slovakia, Slovakia",4843309
Kragujevac,44.0082482,20.9140472,"Kragujevac, Kragujevac City, Sumadija District, Sumadija and Western Serbia, Serbia",1462236
Krakow,50.0619474,19.9368564,"Krakow, Lesser Poland Voivodeship, Poland",151465463
Kraków,50.0646501,19.9449799,"Kraków, Poland",ChIJ0RhONcBEFkcRv4pHdrW2a7Q
Kreuzlingen,47.6464245,9.1725561,"Kreuzlingen, Bezirk Kreuzlingen, Thurgovia, Switzerland",151339492
Kühlungsborn,54.1468513,11.7420026,"Kühlungsborn, Germany",ChIJ89Yd8DCprUcRgIWEregaJQQ
Kyiv,50.4501071,30.5240501,"Kyiv, Shevchenkivskyi district, Kyiv, 01000-06999, Ukraine",130005
Kyoto,35.0185804,135.763835,"Kyoto, Kyoto Prefecture, Kinki Region, Japan",2627225261
Laguna,29.4191226,-100.0056207,"Laguna, TX 78801, USA",ChIJcfQj5w4iX4YRMJ4wjh_07Nc
La Jolla,32.8472711,-117.2742086,"La Jolla, San Diego, Rainbow, San Diego County, California, United States of America",380408
Lancaster,40.03813,-76.3056686,"Lancaster, Lancaster County, Pennsylvania, United States of America",76969934
Landau,49.2071402,8.1133294,"Landau, Landau in der Pfalz, Rhineland-Palatinate, Germany",48659005
Langenthal,47.2115846,7.7888427,"Langenthal, Verwaltungskreis Oberaargau, Verwaltungsregion Emmental-Oberaargau, Bern, Switzerland",151328441
La Paz,-16.495647,-68.133542,"La Paz, Provincia Murillo, La Paz Departament, Bolivia",19928878
La Rochelle cedex,43.6093601,3.8730423,"Rue de la Rochelle, Centre Historique, Centre, Montpellier, Hérault, Languedoc-Roussillon, Metropolitan France, 34000;34070;34080;34090, France",56106389
Las Vegas,36.1699412,-115.1398296,"Las Vegas, NV, USA",ChIJ0X31pIK3voARo3mz1ebVzDo
La Tronche,45.2090131,5.745715,"La Tronche, Grenoble, Isère, Rhône-Alpes, Metropolitan France, 38700, France",151144754
Lausanne,46.5196535,6.6322734,"Lausanne, Switzerland",ChIJ5aeJzT4pjEcRXu7iysk_F-s
Lausanne-Chuv,46.5267,6.64113,"Lausanne CHUV, Chemin du Calvaire, Chailly, Lausanne, District de Lausanne, Vaud, 1011, Switzerland",1614589
Leganes (Madrid),40.3281942,-3.76527,"Leganés, Área metropolitana de Madrid y Corredor del Henares, Community of Madrid, Spain",151197812
Legon,50.1254104,18.2618886,"Łęgoń, Racibórz, Racibórz County, Silesian Voivodeship, Poland",127227246
Legon-Accra,5.6392848,-0.1624589,"East Legon, Accra, Accra Metropolitan, Greater Accra Region, Ghana",3653621
"Legon, Accra",5.6392848,-0.1624589,"East Legon, Accra, Accra Metropolitan, Greater Accra Region, Ghana",3653621
Leicester,52.6367811,-1.1312289,"Leicester, Leicestershire, East Midlands, England, United Kingdom",106117
Leiden,52.1518157,4.48110886662043,"Leiden, South Holland, Netherlands, The Netherlands",151188560
Leioa,43.3268277,-2.9869468,"Leioa, Biscay, Basque Country, Spain",151196484
Leipzig,51.3391827,12.3810549,"Leipzig, Saxony, Germany",17363539
"Leipzig, D",51.3391827,12.3810549,"Leipzig, Saxony, Germany",17363539
Le Mont-sur-Lausanne,46.554765,6.640144,"Le Mont-sur-Lausanne, District de Lausanne, Vaud, 1052, Switzerland",151330090
Leuven,50.88121295,4.69418278098918,"Leuven, Flemish Brabant, Flanders, 3000, Belgium",2592782904
Leyte,10.833333,124.833333,"Leyte, Baybay, Leyte 5th District, Leyte, Eastern Visayas, 6521, Philippine Continental Shelf",2708817514
Liebefeld,46.9322404,7.4204692,"Liebefeld, Köniz, Verwaltungskreis Bern-Mittelland, Bern, 3097, Switzerland",176220
Liestal,47.4839723,7.7347783,"Liestal, Bezirk Liestal, Basel-Landschaft, 4410, Switzerland",151328952
Lille,50.6305089,3.0706414,"Lille, Nord, Nord-Pas-de-Calais, Metropolitan France, 59000, France",151140808
Lima,-12.061642,-77.0367112,"Lima, Province of Lima, Lima, Peru",2722352694
Lindau,47.550753,9.6926624,"Lindau (Bodensee), Landkreis Lindau, Swabia, Free State of Bavaria, Germany",151255002
Linz,48.3059078,14.286198,"Linz, Linz (Stadt), Upper Austria, Austria",120446
Lisbon,38.7077926,-9.136507,"Lisboa, Lisbon, Grande Lisboa, Lisboa, Portugal",834083
Lisbonne,38.7442239,-9.15187325376419,"Lisbon, Grande Lisboa, Lisboa, Portugal",2662120960
Ljubljana,46.049865,14.5068921,"Ljubljana, Upravna Enota Ljubljana, Osrednjeslovenska, Slovenia",151328013
Locarno,46.1669988,8.7942643,"Locarno, Switzerland",ChIJIyho3_zJhUcRmjrqL5kHkf8
London,51.5073509,-0.1277583,"London, UK",ChIJdd4hrwug2EcRmSrV3Vo6llI
Loos,50.6092082,3.0162523,"Loos, Lille, Nord, Nord-Pas-de-Calais, Metropolitan France, 59120, France",151140707
Lørenskog,59.8832272,10.9551495,"Lørenskog, Norway",ChIJ-eOdlPZkQUYRzes2YJ0jrkI
Los Angeles,34.0522342,-118.2436849,"Los Angeles, CA, USA",ChIJE9on3F3HwoAR9AhGJW_fL-I
Louvain-la Neuve,50.6741689,4.61415673172108,"LLN, Ottignies-Louvain-la-Neuve, Nivelles, Walloon Brabant, Wallonia, 1348, Belgium",151544119
Lubbock,33.5778631,-101.8551665,"Lubbock, TX, USA",ChIJOd19060S_oYRh0LoIikE8Bo
Lübeck,53.8654673,10.6865593,"Lübeck, Germany",ChIJ850L91MJskcRtBJ-PldfcvQ
Lugano,46.0036778,8.951052,"Lugano, Switzerland",ChIJ8RFCavcthEcR4PihLiEEjO8
Lund,55.7029296,13.1929449,"Lund, Lund Municipality, Skåne, Götaland, Sweden",151433312
Lüneburg,53.2464214,10.4115179,"Lüneburg, Germany",ChIJW6SejMXdsUcRw_701MwGAMY
Lusaka,-15.4166967,28.2813812,"Lusaka, Lusaka Province, Zambia",55012817
Luxembourg,49.8158683,6.1296751,Luxembourg,4030953
Luzern,47.0501682,8.3093072,"Lucerne, Switzerland",ChIJeXNUeSr6j0cRr1KZQNEq8K4
Luzern KPD,NA,NA,NA,NA
Lviv,49.8419505,24.0315968,"Lviv, Halytskyi District, Lviv City Council, Lviv Oblast, Ukraine",2669670548
Lyon,45.7578137,4.8320114,"Lyon, Métropole de Lyon, Departemental constituency of Rhône, Auvergne-Rhône-Alpes, Metropolitan France, France",151152300
Maastricht,50.85798545,5.69698818182211,"Maastricht, Province of Limburg, Netherlands, The Netherlands",151374960
"Machida, Tokyo",35.5415106,139.4539295,"Machida, Tokyo, Kanto, Japan",2655331319
Madang,-5.2129115,145.8088188,"Madang, Madang District, Madang, Momase Region, Papua New Guinea",7978731
Madison,43.0730517,-89.4012302,"Madison, WI, USA",ChIJ_xkgOm1TBogRmEFIurX8DE4
Madrid,40.4167047,-3.7035825,"Madrid, Área metropolitana de Madrid y Corredor del Henares, Community of Madrid, Spain",2656877279
Magdeburg,52.1315889,11.6399609,"Magdeburg, Saxony-Anhalt, Germany",209942
Magglingen/Macolin,47.1392888,7.2141817,"Magglingen Macolin, Hauptstrasse, Magglingen, Evilard, Verwaltungskreis Biel/Bienne, Verwaltungsregion Seeland, Bern, 2532, Switzerland",5956130
Mainz,49.9999952,8.2710237,"Mainz, Rhineland-Palatinate, Germany",648270
Maltepe Istanbul,40.943396,29.1601514904393,"Maltepe, Istanbul, Marmara Region, Turkey",151284194
Manchester,53.4791301,-2.2441009,"Manchester, Greater Manchester, North West England, England, United Kingdom",2704385716
Mannheim,49.4895914,8.4672361,"Mannheim, Regierungsbezirk Karlsruhe, Baden-Württemberg, Germany",628994
Manno,34.1781356,133.8932453,"Manno, Nakatado County, Kagawa Prefecture, Shikoku Region, Japan",2603868465
Maputo,-25.9662133,32.5674498,"Maputo, Mozambique",149697
Marburg,50.8117327,8.7757742,"Marburg, Landkreis Marburg-Biedenkopf, Regierungsbezirk Gießen, Hesse, Germany",151183400
Maribor,46.555628,15.64477,"Maribor, Podravska, Slovenia",88459701
Marrakech,31.6259901,-7.9886083,"Marrakesh, Pachalik de Marrakech, Préfecture de Marrakech عمالة مراكش, Marrakech-Safi, Morocco",4767331
Marseille,43.296482,5.36978,"Marseille, France",ChIJM1PaREO_yRIRIAKX_aUZCAQ
Martigny,46.103115,7.0727354,"Martigny, Valais - Wallis, Switzerland",151330323
Mascow,53.9336214,13.4157118,"Mascowstraße, Wieck, Gützkow, Züssow, Landkreis Vorpommern-Greifswald, Mecklenburg-Vorpommern, 17506, Germany",81717330
Maseru,-29.3100536,27.4782219,"Maseru, Maseru District, Lesotho",169000
Maseru West,-29.3017859,27.4724513,"Maseru West, Maseru, Maseru District, Maseru, Lesotho",17777267
Matieland,NA,NA,NA,NA
Mattarello,46.0079317,11.1284914,"Mattarello, TN, Trentino-Alto Adige - Südtirol, Italy",12790366
Maynooth,53.3830239,-6.5922806,"Maynooth, County Kildare, Leinster, Ireland",254141
MB Eindhoven,51.4478874,5.4859518,"5600 MB, The Netherlands",151705479
MD Maastricht,50.834741,5.711506,"Postbus 616, 6200 MD Maastricht, Netherlands",ChIJEygSy5zpwEcRw4HhwwwzZK4
Mekelle,13.5011216,39.4757557,"Mek'elē, Mekele, Tigray Region, Ethiopia",1311358
Melbourne,-37.8142176,144.9631608,"Melbourne, City of Melbourne, Greater Melbourne, Victoria, 3000, Australia",116390
Menlo Park,37.4538274,-122.1821871,"Menlo Park, San Mateo County, California, United States of America",151326099
Meudon,48.8126229,2.2387564,"Meudon, Boulogne-Billancourt, Hauts-de-Seine, Ile-de-France, Metropolitan France, 92190;92360, France",151131309
México,23.634501,-102.552784,Mexico,ChIJU1NoiDs6BIQREZgJa760ZO0
Meyrin,46.2328413,6.0817791,"Meyrin, Geneva, Switzerland",151330650
Milan,45.4667971,9.1904984,"Milan, Lombardy, Italy",2681541423
Milano,45.4667971,9.1904984,"Milan, Lombardy, Italy",2681541423
Minneapolis,44.9772995,-93.2654692,"Minneapolis, Hennepin County, Minnesota, United States of America",151161291
"Miramar, Playa",23.1163399,-82.4316222,"Miramar, Playa, Havana, Cuba",2665986114
Modena,44.647128,10.9252269,"Modena, Province of Modena, Italy",ChIJ4WRJ3RLvf0cRKH8rSX0edZY
Mondsee,47.855128,13.3476406,"Mondsee, Vöcklabruck, Upper Austria, 5310, Austria",151146064
Mons,50.4549568,3.951958,"Mons, Hainaut, Wallonia, Belgium",151357565
Montpellier,43.6112422,3.8767337,"Montpellier, Hérault, Languedoc-Roussillon, Metropolitan France, 34000;34070;34080;34090, France",151130915
Montréal,45.5016889,-73.567256,"Montreal, QC, Canada",ChIJDbdkHFQayUwR7-8fITgxTmU
Mont Saint Aignan,49.4679,1.0813,"Mont-Saint-Aignan, Rouen, Seine-Maritime, Normandy, Metropolitan France, 76130, France",151146312
Mont St-Aignan,49.4679,1.0813,"Mont-Saint-Aignan, Rouen, Seine-Maritime, Normandy, Metropolitan France, 76130, France",151146312
Morges,46.5093268,6.498317,"Morges, District de Morges, Vaud, 1110, Switzerland",151330309
Morogoro,-6.8683499,37.8138001448415,"Morogoro, Coastal, Tanzania",151318384
Moscow,55.755826,37.6172999,"Moscow, Russia",ChIJybDUc_xKtUYRTM9XV8zWRD0
Moskau,55.755826,37.6172999,"Moscow, Russia",ChIJybDUc_xKtUYRTM9XV8zWRD0
Muizenberg,-34.1027778,18.4652778,"Muizenberg, Cape Town Subcouncil 19, Cape Town, City of Cape Town, Western Cape, RSA",815493
Mulhouse,47.7494188,7.3399355,"Mulhouse, Haut-Rhin, Alsace, Metropolitan France, France",151131834
Mumbai,18.9523804,72.8327112,"Mumbai, Greater Bombay, Maharashtra, India",109503
München,48.1351253,11.5819805,"Munich, Germany",ChIJ2V-Mo_l1nkcRfZixfUq4DAE
Münchenstein,47.5226485,7.6150661,"Münchenstein, Switzerland",ChIJuYrT-vi3kUcRWde8OOYmQaY
Münster,51.9606649,7.6261347,"Münster, Germany",ChIJ32D3mcO6uUcR6yjze6dM6yE
Murcia,37.9922399,-1.1306544,"Murcia, Spain",ChIJf4yS1fiBYw0RmqvEOJsSJ9Y
Müstair,46.6261772,10.445857,"Müstair, Switzerland",ChIJ_7wjDdcZg0cRw6O9vaXm2oY
Muttenz,47.525113,7.6477401,"Muttenz, Basel-Landschaft, 4132, Switzerland",151328958
Nairobi,-1.2832533,36.8172449,"Nairobi, Kenya",149570
Nampula,-15.1194063,39.2615886,"Nampula, Mozambique",977707
Nanjing,32.060255,118.796877,"Nanjing, Jiangsu, China",ChIJg82NZpuMtTURBhvfeQu2-48
Nanterre,48.8924273,2.2071267,"Nanterre, Hauts-de-Seine, Ile-de-France, Metropolitan France, 92000, France",151144935
Nantes,47.2185155,-1.560235,"Nantes, Loire-Atlantique, Pays-de-la-Loire, Metropolitan France, 44000;44100;44200;44300, France",151140969
Nanyuki,0.0140294,37.0746325,"Nanyuki, Laikipia, Kenya",235297
Naples,40.8517746,14.2681244,"Naples, Metropolitan City of Naples, Italy",ChIJ6_p622YIOxMRfriMZcxDOtI
Napoli,42.199784,-78.8919812,"Napoli, NY 14755, USA",ChIJQxKWqvuQ0okRaTYiqMx_k3E
"Nehru Marg, Nagpur",21.130854,79.1180621,"Nehru Marg, Azamshah Layout, Nagpur, Maharashtra 440009, India",ChIJSYerP1fH1DsR0n3djTm6R8k
Neuchâtel,46.9899874,6.9292732,"Neuchâtel, Switzerland",ChIJm81S1RkKjkcRBGS2VWjDXCM
Neuchâtel OFS,46.9751954,6.771555,"Canton of Neuchâtel, Switzerland",ChIJxargAWHmjUcR_VjopE8rdzw
Neuherberg,49.1295465,10.8539738,"Neuherberg, Gunzenhausen (VGem), Weißenburg-Gunzenhausen, Middle Franconia, Free State of Bavaria, Germany",1401626
New Cairo,30.0207161,31.4535386,"New Cairo, Cairo Governorate, Egypt",27256475
New Delhi,28.6138967,77.2159562,"New Delhi, New Delhi District, Delhi, India",2711704945
New Haven,41.3082138,-72.9250518,"New Haven, New Haven County, Connecticut, United States of America",151187132
Newport,51.5882332,-2.9974967,"Newport, Wales, NP, United Kingdom",138650
New York,40.7127753,-74.0059728,"New York, NY, USA",ChIJOwg_06VPwokRYv534QaPC8g
New York City,40.7127753,-74.0059728,"New York, NY, USA",ChIJOwg_06VPwokRYv534QaPC8g
Nice,43.7009358,7.2683912,"Nice, Maritime Alps, Provence-Alpes-Côte d'Azur, Metropolitan France, 06000;06100;06200;06300, France",151170582
Nijmegen,51.84260195,5.8385196119892,"Nijmegen, Nijmegen-Nieuw-West, Nijmegen, Stadsregio Arnhem Nijmegen, Gelderland, Netherlands, The Netherlands",151274251
Nizhny Novgorod,56.2965039,43.936059,"Nizhny Novgorod, Nizhny Novgorod Oblast, Russia",ChIJUTID7vnVUUERqleWhM_A0yg
Nizza,43.7009358,7.2683912,"Nice, Maritime Alps, Provence-Alpes-Côte d'Azur, Metropolitan France, 06000;06100;06200;06300, France",151170582
Norwich,52.628606,1.29227,"Norwich, Norfolk, East of England, England, United Kingdom",151171798
Nottingham,52.9549771,-1.1511066,"Nottingham, East Midlands, England, United Kingdom",151153570
Nottwil,47.1347804,8.1359343,"Nottwil, Luzern, 6207, Switzerland",151328702
Nouméa,-22.2558234,166.4505243,"Noumea, New Caledonia",ChIJyzIaP2niJ2wRAN0S8yqy8Xs
"Nouna, Kossi",12.7332094,-3.8670225,"Nouna, Kossi, Boucle du Mouhoun, Burkina Faso",8473792
Novi Sad,45.2551053,19.845081,"Novi Sad, Novi Sad City, South Backa District, Vojvodina, 21000, Serbia",271510
"Ñuñoa, Santiago",-33.4566678,-70.5978415,"Ñuñoa, Santiago Metropolitan Region, Chile",ChIJ6TZN_JTPYpYRRVH-3xZvjZU
Nyon,46.3821531,6.2398898,"Nyon, District de Nyon, Vaud, 1260, Switzerland",151330806
Oakland,37.8043637,-122.2711137,"Oakland, CA, USA",ChIJA-2qKIt9hYARZ5N1NdUVtHE
Oak Ridge,36.0103562,-84.2696449,"Oak Ridge, Anderson County, Tennessee, United States of America",151181373
Obstlas Moskow,NA,NA,NA,NA
Odessa,46.4846121,30.7325586,"Odessa, Prymors'kyi Rayon, Odessa, Odessa Oblast, 65000-65480, Ukraine",129841
Offenbach am Main,50.0887662,8.7662861,"Offenbach am Main, Regierungsbezirk Darmstadt, Hesse, 63069, Germany",2636064964
Oldenburg,53.1389753,8.2146017,"Oldenburg, Lower Saxony, Germany",912754
Olten,47.3507365,7.9053185,"Olten, Bezirk Olten, Amtei Olten-Gösgen, Solothurn, Switzerland",151328855
Orsay,48.6991805,2.1874811,"Orsay, Palaiseau, Essonne, Ile-de-France, Metropolitan France, 91400, France",151131074
Orsay-Cedex,NA,NA,NA,NA
Orsay Cédex,NA,NA,NA,NA
Oslo,59.9132694,10.7391112,"Oslo, Norway",113527
Osnabrück,52.2799112,8.0471788,"Osnabrück, Germany",ChIJTV17aZjluUcRYFwAY3fPJgQ
Ouagadougou,12.3681481,-1.5270853,"Ouagadougou, Kadiogo, Centre, Burkina Faso",149712
Oxford,51.752225,-1.2583028,"Oxford, Oxfordshire, South East, England, United Kingdom",151214206
"Oxford, OX1RE",8.2148645,124.2362341,"Oxford, NFA Office, Iligan, Iligan City, Northern Mindanao, 9200, Philippine Continental Shelf",82948054
"Oxford, UK",51.752225,-1.2583028,"Oxford, Oxfordshire, South East, England, United Kingdom",151214206
Padova,45.4077172,11.8734455,"Padua, PD, Veneto, Italy",151137398
Palaiseau,48.7170283,2.2468567,"Palaiseau, Essonne, Ile-de-France, Metropolitan France, 91120, France",151131350
Palma,40.7311708,-74.0023327,"28 Cornelia St, New York, NY 10014, USA",ChIJw_xat5NZwokRpW-BtDpdsPs
Paris,48.8566101,2.3514992,"Paris, Ile-de-France, Metropolitan France, France",2714584181
Paris cedex,48.78867155,2.44374417188822,"UPEC, 61, Rue Louis Pasteur Valléry-Radot, Créteil, Val-de-Marne, Ile-de-France, Metropolitan France, 94010 CRETEIL CEDEX, France",63442461
Paris Cédex,48.856614,2.3522219,"Paris, France",ChIJD7fiBh9u5kcRYJSMaMOCCwQ
Parma,44.8011232,10.3285084,"Parma, PR, Emilia-Romagna, Italy",151135647
Patras,38.2462033,21.7352492,"Patras, Patra Municipality, Achaea Regional Unit, West Greece Region, Peloponnese, West Greece and Ionian Sea Administration, Greece",279627
Pavia,45.1860043,9.1546375,"Pavia, PV, Lombardy, Italy",2676015757
Payerne,46.8208047,6.939126,"Payerne, District de la Broye-Vully, Vaud, Switzerland",151330179
Pessac,44.8055629,-0.6302789,"Pessac, Bordeaux, Gironde, Aquitaine, Metropolitan France, 33600, France",151148664
Philadelphia,39.9523993,-75.1635899,"Philadelphia, Philadelphia County, Pennsylvania, United States of America",151178191
Phnom Penh,11.5742555,104.82899544331,"Phnom Penh, Cambodia",151402145
Piatra Neamt,46.9319894,26.3695046,"Piatra Neamț, Neamț, Romania",361289
Pisa,43.715925,10.4018984,"Pisa, PI, Tuscany, Italy",151135130
PISA,43.715925,10.4018984,"Pisa, PI, Tuscany, Italy",151135130
Piscataway,40.5462553,-74.4660408,"Piscataway, Middlesex County, New Jersey, United States of America",528730
Plovdiv,42.1419118,24.7498385,"Plovdiv, Plovdiv Region, Bulgaria",151364690
Plymouth,50.3712659,-4.1425658,"Plymouth, Devon, South West England, England, United Kingdom",110706
Podgorica,42.4415238,19.2621081,"Podgorica, Opština Podgorica, Montenegro",2639880296
Ponta Delgada,37.7463404,-25.6670663,"Ponta Delgada, São Miguel, Azores, Portugal",121426
Poole,50.74018055,-1.95377373524348,"Poole, South West England, England, United Kingdom",151158541
Porrentruy,47.4170492,7.0757801,"Porrentruy, District de Porrentruy, Jura, Switzerland",151340068
Port Elisabeth,-30.7436144,30.4573282,"Port Shepstone, Princess Elisabeth Drive, Hibiscus Coast Ward 18, Hibiscus Coast Local Municipality, Ugu District Municipality, KwaZulu-Natal, RSA",13085121
"Port Elizabeth, Eastern Cape",-33.9434595,25.5327401,"Port Elizabeth, Nelson Mandela Bay Metropolitan Municipality, Eastern Cape, RSA",122611
Posieux,46.7643272,7.09769,"Posieux, Sarine District, Fribourg - Freiburg, Switzerland",585637
Potchefstroom,-26.7077778,27.0958333,"Potchefstroom, Dr Kenneth Kaunda District Municipality, North West, RSA",814742
Potsdam,52.4009309,13.0591397,"Potsdam, Brandenburg, Germany",17457129
Potsdam-Golm,52.40151165,13.0098818568109,"University of Potsdam, 10, Am Neuen Palais, Potsdam West, Potsdam, Brandenburg, 14469, Germany",82491166
Poznan,52.40039265,16.9202182091532,"Poznań, Greater Poland Voivodeship, Poland",151489971
Prag,50.0874401,14.4212556,"Prague, okres Hlavní město Praha, Hlavní město Praha, Prague, Czech Republic",151236100
Prague,50.0874401,14.4212556,"Prague, okres Hlavní město Praha, Hlavní město Praha, Prague, Czech Republic",151236100
Prague - Dejvice,50.103031,14.3914865,"UCT Prague, Technická, Dejvice, Prague, okres Hlavní město Praha, Hlavní město Praha, Prague, 16000, Czech Republic",2650576281
Praha,50.0874401,14.4212556,"Prague, okres Hlavní město Praha, Hlavní město Praha, Prague, Czech Republic",151236100
Pratteln,47.5192013,7.6944741,"Pratteln, Bezirk Liestal, Basel-Landschaft, 4133, Switzerland",151339021
Pretoria,-25.7458369,28.1867178,"Pretoria, City of Tshwane Metropolitan Municipality, Gauteng, RSA",123985
Prilly,46.5374332,6.6113784,"Prilly, District de l'Ouest lausannois, Vaud, 1008, Switzerland",151330818
Princeton,40.3492744,-74.6592958,"Princeton, Mercer County, New Jersey, United States of America",531233
Prishtina,42.6639939,21.1638351,"Pristina, Kukës, Prishtina Municipality, 10000, Kosovo",2631942405
Prishtine,42.6639939,21.1638351,"Pristina, Kukës, Prishtina Municipality, 10000, Kosovo",2631942405
Pristina,42.6639939,21.1638351,"Pristina, Kukës, Prishtina Municipality, 10000, Kosovo",2631942405
Pullman,46.7304268,-117.173895,"Pullman, Whitman County, Washington, United States of America",2653588321
Québec,46.8138783,-71.2079809,"Québec City, QC, Canada",ChIJk4jbBYqWuEwRAzro8GMtxY8
Quezon City,14.6509905,121.0486155,"Quezon City, District IV, Quezon City, Metro Manila, Philippines",108032
Quito,-0.1553881,-78.4862309,"Quito, Pichincha, Ecuador",2675073633
RA Leiden,52.1629077,4.4862522,"2312 RA, The Netherlands",151743166
Rapperswil SG,47.2269198,8.8245459,"Rapperswil, Wahlkreis See-Gaster, Sankt Gallen, Switzerland",636791
Reading,51.4580216,-0.9673727,"Reading, South East, England, United Kingdom",108537
Regensburg,49.0195333,12.0974869,"Rgbg, Regensburg, Upper Palatinate, Free State of Bavaria, Germany",648753
Rehovot,31.892773,34.811272,"Rehovot, Israel",ChIJj-W_kgW3AhURV_lYF8v4re4
Renens VD,46.5370126,6.57887031604434,"Renens VD, Place de la Gare, Renens-Village, Renens, District de l'Ouest lausannois, Vaud, 1020, Switzerland",2606225543
Rennes,48.1113589,-1.680009,"Rennes, Ille-et-Vilaine, Brittany, Metropolitan France, 35000;35200;35700, France",151140102
Rennes Cédex,48.117266,-1.6777926,"Rennes, France",ChIJhZDWpy_eDkgRMKvkNs2lDAQ
Reykjavik,64.145981,-21.9422367,"Reykjavik, Capital Region, Iceland",21343742
Reykjavík,64.1265206,-21.8174392,"Reykjavík, Iceland",ChIJw-3c7rl01kgRcWDSMKIskew
Riga,56.9493977,24.1051846,"Riga, Rīga, Vidzeme, Latvia",151483411
Rio Achaia,37.975662,23.7524582,"Ιλισσός, Athens, Municipality of Athens, Regional Unit of Central Athens, Attica, Attica Administration, Greece",101364526
Rio de Janeiro,-22.2752762,-42.419415,"Rio de Janeiro, Southeast Region, Brazil",151140764
Rio De Janeiro,-22.2752762,-42.419415,"Rio de Janeiro, Southeast Region, Brazil",151140764
Riverside,33.9533546,-117.3961623,"Riverside, Riverside County, California, United States of America",83514724
Rochester,43.1572851,-77.6152141,"Rochester, Monroe County, New York, United States of America",16345025
Roma,41.9027835,12.4963655,"Rome, Metropolitan City of Rome, Italy",ChIJu46S-ZZhLxMROG5lkwZ3D7k
Roma RM Lazio,41.9027835,12.4963655,"Rome, Metropolitan City of Rome, Italy",ChIJu46S-ZZhLxMROG5lkwZ3D7k
Rome,41.9027835,12.4963655,"Rome, Metropolitan City of Rome, Italy",ChIJu46S-ZZhLxMROG5lkwZ3D7k
Romont FR,46.6986114,6.92302614864853,"Romont (FR), District de la Glâne, Fribourg - Freiburg, 1680, Switzerland",151338873
Rondebosch,-33.9680556,18.4877778,"Rondebosch, Cape Town Subcouncil 20, Cape Town, City of Cape Town, Western Cape, RSA",124694
Rorschach,47.4776304,9.5019983,"Rorschach, Wahlkreis Rorschach, Sankt Gallen, Switzerland",151329531
Rostock,54.0924445,12.1286127,"Rostock, Mecklenburg-Vorpommern, Germany",17378622
Rüschlikon,47.3063522,8.5529459,"Rüschlikon, Switzerland",ChIJm47HaLinmkcRjw9bQpYg5Og
Saarbrücken,49.2401572,6.9969327,"Saarbrücken, Germany",ChIJ68AC41KxlUcRgGvbENXUIgQ
"Sainik Colony, Jammu",32.6724714,74.9121083,"Sainik Colony, Jammu",ChIJDS05K-icHjkR3xH8wsWqXJ4
Saint Ismier,45.2481677,5.8261521,"Saint-Ismier, Grenoble, Isère, Rhône-Alpes, Metropolitan France, 38330, France",151144629
Saint-Jérôme,45.775357,-74.004948,"Saint-Jérôme, QC, Canada",ChIJ7Ww4LaMsz0wREFJNrq0MBAU
Saint-Martin d'Heres,45.1840758,5.7539023,"Saint-Martin-d'Hères, Grenoble, Isère, Rhône-Alpes, Metropolitan France, 38400, France",151144615
Saint-Maur cedex,46.805363,1.639708,"36250 Saint-Maur, France",ChIJY9NDlQ2g-0cRnn043ZCOloA
Saint-Paul,44.9504037,-93.1015026,"Saint Paul, Ramsey County, Minnesota, United States of America",151161220
Saint Petersburg,59.9393657,30.3153628,"Saint Petersburg, Центральный район, Saint Petersburg, Northwestern Federal District, 190000, Russian Federation",151219018
Saint-Petersburg,59.9393657,30.3153628,"Saint Petersburg, Центральный район, Saint Petersburg, Northwestern Federal District, 190000, Russian Federation",151219018
Salt Lake City,40.7670126,-111.8904308,"Salt Lake City, Utah, United States of America",151182253
Salzburg,47.7981346,13.0464806,"Salzburg, Salzburg (state), 5020, Austria",151381372
San Diego,32.7174209,-117.1627714,"San Diego, Rainbow, San Diego County, California, United States of America",2610373447
San Francisco,37.7749295,-122.4194155,"San Francisco, CA, USA",ChIJIQBpAG2ahYAR_6128GcTUEo
"San Pedro, Montes de Oca, San José",9.9301517,-84.0511025,"San José Province, San Pedro, Costa Rica, Costa Rica",ChIJtaETTfHjoI8RLdb72F3z3lU
Santa Barbara,34.4098107,-119.6970239,"Santa Barbara, Santa Barbara County, California, United States of America",61549027
Santiago de Chile,-33.437913,-70.6504558,"Santiago, Provincia de Santiago, Región Metropolitana de Santiago, Chile",151169322
Sao Paulo,-21.9549806,-49.0232348,"São Paulo, Southeast Region, Brazil",151189151
Sarajevo,43.8519774,18.3866868,"Sarajevo, New Sarajevo municipality, City of Sarajevo, Sarajevo Canton, Entity Federation of Bosnia and Herzegovina, Bosnia and Herzegovina",20365093
Saskatchewan,54,-106,"Saskatchewan, Canada",151213742
Sauverny,46.315442,6.1151126,"Sauverny, Gex, Ain, Rhône-Alpes, Metropolitan France, 01220, France",151162827
Schlieren,47.3965147,8.4444861,"Schlieren, Bezirk Dietikon, Zurich, 8952, Switzerland",151329235
Schwerzenbach,47.380845,8.6544519,"Schwerzenbach, Bezirk Uster, Zurich, Switzerland",151328427
Seattle,47.6038321,-122.3300624,"Seattle, King County, Washington, United States of America",151183715
Seibersdorf,47.9587158,16.5192999,"Seibersdorf, Bezirk Baden, Lower Austria, Austria",572432
Sembrancher,46.0784832,7.1517153,"Sembrancher, Entremont, Valais - Wallis, 2303, Switzerland",151330365
Semey,25.23597075,55.1719924410048,"Semey, Dubai, United Arab Emirates",79399971
Sempach Stadt,47.1361596,8.1931005,"Sempach Stadt, Weihermatte, Sempach, Luzern, 6204, Switzerland",1609800
Seoul,37.5666791,126.9782914,"Seoul, South Korea",2682709686
Seville,37.3890924,-5.9844589,"Seville, Spain",ChIJkWK-FBFsEg0RSFb-HGIY8DQ
Séville,37.3890924,-5.9844589,"Seville, Spain",ChIJkWK-FBFsEg0RSFb-HGIY8DQ
Sfax,34.739739,10.7598516,"صفاقس, Sfax Medina, Sfax, 3000, Tunisia",987061
Shanghai,31.2253441,121.4888922,"Shanghai, Huangpu District, Shanghai, China",2613199942
Sharood,NA,NA,NA,NA
Sheffield,53.3806626,-1.4702278,"Sheffield, Yorkshire and the Humber, England, United Kingdom",2683953090
Shenzhen,22.5442673,114.0545327,"Shenzhen, Futian District, Shenzhen City, Guangdong, 518000, China",2648268259
Sherbrooke,45.4029964,-71.887681,"Sherbrooke, Quebec, Canada",2691854206
Shiraz,29.6096054,52.5431763,"Shiraz, Fars, Iran",129640
Sidney,40.2842164,-84.1554987,"Sidney, OH 45365, USA",ChIJP_iExpEMP4gRzOa4U9qCKAY
Sierre,46.2922522,7.5323195,"Sierre, Valais - Wallis, 3960, Switzerland",151330890
Sikasso,11.3164979,-5.6777499,"Sikasso, Sikasso Cercle, Sikasso, Mali",315798
Singapore,1.2904527,103.852038,"Singapore, Central Singapore Community Development Council, Singapore",2613194536
Sion,46.2311749,7.3588795,"Sion, Valais - Wallis, 1950, Switzerland",151464271
Skolkovo,55.8366667,42.5727778,"Сколково, Вачский район, Nizhny Novgorod Oblast, Volga Federal District, Russian Federation",2645902928
Skopje,41.9962268,21.4317955,"Skopje, Municipality of Centar, City of Skopje, Skopje Region, 1000, Macedonia",151498609
Sofia,42.6977211,23.3225964,"Sofia, Sofia-City Region, Bulgaria",2622148016
Solna,59.3697845,18.010360200085,"Solna, Landskapet Uppland, Stockholms län, Svealand, Sweden",151215416
Solothurn,47.2081355,7.5384045,"Solothurn, Bezirk Solothurn, Amtei Solothurn-Lebern, Solothurn, Switzerland",151329303
Somerset West,-34.0821129,18.8492883,"Somerset West, City of Cape Town, Western Cape, RSA",603894
Soncino,45.3989753,9.8744242,"Soncino, CR, Lombardy, Italy",151137279
Sophia-Antipolis,43.619776,7.0477082,"Sophia Antipolis, Valbonne, Grasse, Maritime Alps, Provence-Alpes-Côte d'Azur, Metropolitan France, 06560, France",736648
Southampton,50.9025349,-1.404189,"Southampton, South East, England, United Kingdom",26212426
Soweto,-26.2227778,27.89,"Soweto, City of Johannesburg Metropolitan Municipality, Gauteng, RSA",149822
Spiez,46.6919473,7.6774655,"Spiez, Verwaltungskreis Frutigen-Niedersimmental, Verwaltungsregion Oberland, Bern, Switzerland",151328397
St. Andrews,56.3403902,-2.7955844,"St Andrews, Fife, Scotland, United Kingdom",115785
Stanford,37.4265649,-122.170187551249,"Stanford University, Santa Clara County, California, United States of America",151313726
Stavanger,58.9680427,5.7324722,"Stavanger, Rogaland, Norway",168208
St-Blaise,43.8212847,7.2391464,"Saint-Blaise, Nice, Maritime Alps, Provence-Alpes-Côte d'Azur, Metropolitan France, 06670, France",151180024
Stellenbosch,-33.9344444,18.8691667,"Stellenbosch, Cape Winelands District Municipality, Western Cape, RSA",116248
St. Gallen,47.4250593,9.3765878,"St. Gallen, Wahlkreis St. Gallen, Sankt Gallen, Switzerland",151329551
St. Louis,38.6272733,-90.1978889,"St. Louis, City of St. Louis, Missouri, United States of America",151162743
"St. Louis, Missouri",38.6272733,-90.1978889,"St. Louis, City of St. Louis, Missouri, United States of America",151162743
St-Maurice,46.2148346,7.0052877,"Saint-Maurice, Valais - Wallis, 1890, Switzerland",151464278
Stockholm,59.3251172,18.0710935,"Stockholm, Landskapet Södermanland, Stockholms län, Svealand, Sweden",126171
St. Petersburg,59.9393657,30.3153628,"Saint Petersburg, Центральный район, Saint Petersburg, Northwestern Federal District, 190000, Russian Federation",151219018
Strasbourg,48.584614,7.7507127,"Strasbourg, Bas-Rhin, Alsace, Metropolitan France, 67000;67100;67200, France",151142121
St-Sulpice VD,46.5080244,6.5621163,"Saint-Sulpice VD, Avenue du Léman, Saint-Sulpice, District de l'Ouest lausannois, Vaud, 1025, Switzerland",934056
Stuttgart,48.7784485,9.1800132,"Stuttgart, Regierungsbezirk Stuttgart, Baden-Württemberg, Germany",17313000
Sumy,50.9042589,34.8050035222872,"Sumy, Зарічний район, Сумська міська рада, Sumy Oblast, Ukraine",2682777503
Surabaya,-7.2459717,112.7378266,"Surabaya, Alun-Alun Contong, Bubutan, Surabaya, East Java, Indonesia",39192177
Surrey,51.2715316,-0.341452301129091,"Surrey, South East, England, United Kingdom",151140787
Suwon,37.2633325,127.0287472,"Suwon, Gyeonggi-do, South Korea",151426332
Sydney,-33.8679574,151.210047,"Sydney, NSW, Australia",2683335165
Talence Cédex,44.802614,-0.588054,"33400 Talence, France",ChIJC5nYpnAnVQ0RINEWSBdlBgQ
Tallinn,59.4369608,24.7535747,"Tallinn, Estonia",ChIJvxZW35mUkkYRcGL8GG2zAAQ
Tamil Nadu,11.1271225,78.6568942,"Tamil Nadu, India",ChIJM5YYsYLFADsR8GEzRsx1lFU
Tampa,27.9477595,-82.458444,"Tampa, Hillsborough County, Florida, United States of America",2644003689
Tarragona,41.1188827,1.2444909,"Tarragona, Spain",ChIJWfHd09v8oxIRsqOHE6dpBZI
Tarragone,41.1188827,1.2444909,"Tarragona, Spain",ChIJWfHd09v8oxIRsqOHE6dpBZI
Tartu,58.3727059,26.7237528,"Tartu, Tartu maakond, Estonia",151383399
Taschkent,41.3123363,69.2787079,"Tashkent, Mirobod Tumani, Tashkent, 100000, Uzbekistan",149116
Tashkent,41.3123363,69.2787079,"Tashkent, Mirobod Tumani, Tashkent, 100000, Uzbekistan",149116
Taverne,46.7599088,6.2497062,"La Taverne, Labergement-Sainte-Marie, Pontarlier, Doubs, Bourgogne-Franche-Comté, Metropolitan France, 25160, France",2620167333
Tbilisi,41.693435,44.8014979,"Tbilisi, Georgia",2626757017
TB Utrecht,52.0936682,5.1177836,"3512 TB, The Netherlands",152231818
Tel Aviv,32.0804808,34.7805274,"Tel Aviv-Yafo, Tel Aviv District, Israel",2706439139
"Tempaku, Toyohashi",34.7017563,137.4086346,"Japan, 〒441-8580 Aichi Prefecture, Toyohashi, 天伯町雲雀ヶ丘1-1",ChIJx0YWRIbUBGARf9-n54vSGbg
Tetovo,42.0099697,20.9711401,"Tetovo, Municipality of Tetovo, Polog Region, 1200, Macedonia",1047307
Thanjavur,10.7860689,79.1381282,"Thanjavur, Thanjavur district, Tamil Nadu, 613001, India",2681966582
Thônex,46.1928374,6.202767,"Thônex, Switzerland",ChIJjb8U5eBvjEcR92s-m2j7vAc
Thun,46.7582827,7.628086,"Thun, Verwaltungskreis Thun, Verwaltungsregion Oberland, Bern, Switzerland",151338703
Tiblisi,41.693435,44.8014979,"Tbilisi, Georgia",2626757017
Timisoara,45.7538355,21.2257474,"Timișoara, Timiș, Romania",267517
Tirana,41.31588575,19.9009121644611,"Tirana, Tirana County, Albania",151279716
Tokyo,35.6894875,139.6917064,"Tokyo, Japan",ChIJ51cu8IcbXWARiRtXIothAS4
Torino,45.070312,7.6868565,"Turin, Metropolitan City of Turin, Italy",ChIJJb4YZBJtiEcRv3ec1gP4A4k
Toronto,43.6529206,-79.3849008,"Toronto, Ontario, Canada",151193565
Toulouse,43.6044622,1.4442469,"Toulouse, Haute-Garonne, Midi-Pyrénées, Metropolitan France, France",151131147
Toulouse Cédex,43.604652,1.444209,"Toulouse, France",ChIJ_1J17G-7rhIRMBBBL5z2BgQ
Townsville,-19.2569391,146.8239537,"Townsville, QLD, Australia",175924
Triesen,47.106994,9.5274876,"Triesen, Wahlkreis Oberland, Liechtenstein",151268939
Trieste,45.6495264,13.7768182,"Trieste, Province of Trieste, Italy",ChIJM_Xt5AZre0cRUCvd1IQkamY
Trnava,49.2546831,15.9241436,"Trnava, okres Třebíč, Kraj Vysočina, Southeast, Czech Republic",151238729
Tromsö,69.6492047,18.9553239,"Tromsø, Norway",ChIJ_XE7bFLExEUR075ujoXKPQI
Trondheim,63.4305658,10.3951929,"Trondheim, Sør-Trøndelag, Norway",172897
Tübingen,48.5216364,9.0576448,"Tübingen, Germany",ChIJgdDN7dT6mUcRjacz_s6uCKw
Tucson,32.2217429,-110.926479,"Tucson, AZ, USA",ChIJK-0sC0Fl1oYRFccWTTgtw3M
Tulcea,45.0046615,29.0687175089862,"Tulcea, Romania",151419656
Tulln,48.3314949,16.060737,"3430 Tulln, Austria",ChIJRQtyIOVzbUcRQDzmLVeXAAQ
Turin,45.070312,7.6868565,"Turin, Metropolitan City of Turin, Italy",ChIJJb4YZBJtiEcRv3ec1gP4A4k
Turku,60.4517531,22.2670522,"Turku, Finland Proper, South-Western Finland, Southern Finland, Finland",151215152
Turku Finland,60.4517531,22.2670522,"Turku, Finland Proper, South-Western Finland, Southern Finland, Finland",151215152
Tuzla,44.5391105,18.675193,"Tuzla, City of Tuzla, Tuzla Canton, Entity Federation of Bosnia and Herzegovina, 75000, Bosnia and Herzegovina",902135
Tygerberg,-33.8474484,18.6410685,"Tygerberg, Cape Town Ward 21, Cape Town Subcouncil 7, Durbanville, City of Cape Town, Western Cape, 7530, RSA",53197637
Ulm,48.3973944,9.9932755,"Ulm, Regierungsbezirk Tübingen, Baden-Württemberg, Germany",151141987
University of Tampere,61.49412325,23.7792067776763,"University of Tampere, 4, Kalevantie, Ratinanranta, Tulli, Tampere, Pirkanmaa, Western and Central Finland, Western Finland, 33100, Finland",42919531
uppsala,59.8594126,17.64112,"Uppsala, Landskapet Uppland, Uppsala län, Svealand, Sweden",125350
Uppsala,59.8594126,17.64112,"Uppsala, Landskapet Uppland, Uppsala län, Svealand, Sweden",125350
Uster,47.3512065,8.7179221,"Uster, Bezirk Uster, Zurich, Switzerland",151329261
Utrecht,52.08095165,5.12768031549829,"Utrecht, Bestuur Regio Utrecht, Utrecht, Netherlands, The Netherlands",151302737
Valmiera,57.5391883,25.4216251,"Valmiera, Vidzeme, LV-4201, Latvia",139389
Vancouver,49.2608944,-123.1139383,"Vancouver, Greater Vancouver Regional District, British Columbia, Canada",151348236
Vasant Kunj New Delhi,28.5292495,77.1541335,"Vasant Kunj, New Delhi, Delhi, India",151565058
Venezia,45.4371908,12.3345899,"Venice, VE, Veneto, Italy",151137213
Verscio,46.18599,8.7311841,"Verscio, Circolo della Melezza, Distretto di Locarno, Ticino, 6653, Switzerland",15142930
Versoix,46.2767572,6.168958,"Versoix, Geneva, 1290, Switzerland",151330485
Vevey,46.4634985,6.8427295,"Vevey, District de la Riviera-Pays-d’Enhaut, Vaud, 1800, Switzerland",2724359309
Victoria,-36.5986096,144.6780052,"Victoria, Australia",151410001
Victoria10,48.4508016,-123.3877914,"101 Burnside Rd W, Victoria, BC V9A 1B7, Canada",ChIJT5DetHRzj1QRBN8F5gujyG8
Vienna,48.2083537,16.3725042,"Vienna, Austria",110209
Vientiane,17.9640988,102.6133707,"Vientiane, Sisattanak, Vientiane Capital, Laos",353747
Vientiane Capital,18.120498,102.650487733107,"Vientiane Capital, Laos",2688334472
Viganello,46.0133003,8.9674303,"Viganello, Circolo di Lugano est, Lugano, Distretto di Lugano, Ticino, 6962, Switzerland",3727947
Vigo,42.2405989,-8.7207268,"Vigo, Pontevedra, Spain",ChIJk8GyYRRiLw0Rn9RLF60dRHs
Villanueva de la Cañada,40.4481334,-3.9975481,"Villanueva de la Cañada, Madrid, Spain",ChIJyTIOrn-ZQQ0RsOFMvvNAAwQ
Villeneuve d'Ascq,50.6271588,3.1506621,"Villeneuve-d'Ascq, Lille, Nord, Nord-Pas-de-Calais, Metropolitan France, 59491;59493;59650, France",151140674
Villeurbanne,45.7733105,4.8869339,"Villeurbanne, Lyon, Métropole de Lyon, Departemental constituency of Rhône, Auvergne-Rhône-Alpes, Metropolitan France, 69100, France",2722741760
Villigen PSI,47.5386046,8.2298436,"PSI Aarebrücke, 5232 Villigen, Switzerland",ChIJLUxr1hlqkEcRMwOOImSblh4
Volketswil,47.3893142,8.6908127,"Volketswil, Bezirk Uster, Zurich, Switzerland",151338416
Wädenswil,47.2296871,8.6718189,"Wädenswil, Switzerland",ChIJnyEhF1CumkcRtctySJOJKi0
Wako,35.780861,139.613594,"Wako, Iruma, Saitama, Kanto, Japan",6109099
Walferdange,49.6584806,6.1306387,"Walferdange, Canton Luxembourg, Luxembourg",151217924
Warsaw,52.2319237,21.0067265,"Warsaw, Warszawa, Masovian Voivodeship, Poland",151195445
Washington,47.7510741,-120.7401385,"Washington, USA",ChIJ-bDD5__lhVQRuvNfbGh4QpQ
Weimar,50.9802813,11.3290855,"Weimar, Thuringia, 99423, Germany",4043757
Wessling,48.0739105,11.2523969,"Weßling, Landkreis Starnberg, Upper Bavaria, Free State of Bavaria, Germany",151252624
Wien,48.2083537,16.3725042,"Vienna, Austria",110209
Wilrijk,51.16382755,4.38762803217251,"Wilrijk, Antwerp, Flanders, Belgium",151141354
Windisch,47.4793472,8.2179918,"Windisch, Bezirk Brugg, Aargau, Switzerland",151329547
Winterthur,47.4991692,8.7291495,"Winterthur, Bezirk Winterthur, Zurich, Switzerland",151328030
Wisconsin - Madison,43.07996765,-89.4307650969964,"University of Wisconsin-Madison, Marsh Lane, Madison, Dane County, Wisconsin, 53726, United States of America",151598218
Wuhan,30.5960213,114.2992796,"Wuhan, Jiang'an District, Wuhan City, Hubei, China",682267
Wuppertal,51.264018,7.1780374,"Wuppertal, Regierungsbezirk Düsseldorf, North Rhine-Westphalia, Germany",641856
Würzburg,49.7913044,9.9533548,"Würzburg, Germany",ChIJ2U3aEiCQokcRoAli8Ci3HQQ
Yangon,16.8660694,96.195132,"Yangon, Myanmar (Burma)",ChIJaxk-Ip6UwTARtAsI-HHS-1Y
Yaounde,3.8689867,11.5213344,"Yaounde, CUY, Mfoundi, Centre, Cameroon",1586889
Yaoundé,3.8480325,11.5020752,"Yaounde, Cameroon",ChIJd3maMHrPixARUTxpXtO6VH8
Yerevan,40.1776121,44.5125849,"Yerevan, Armenia",353698
Yerewan,37.9566766,58.3770168,"Aga Berdiyew (Yerewan) gecelgesi), Ashgabat, Ahal, Turkmenistan",80769979
Yessentuki,44.0468032,42.8564397,"Essentuki, городской округ Ессентуки, Stavropol Krai, North Caucasus federal district, Russian Federation",114660136
Yogyakarta,-7.7829247,110.3669652,"Yogyakarta, Cokrodiningratan, Jetis, Kota Yogyakarta, Special Region of Yogyakarta, 55233, Indonesia",15266033
York,53.9590555,-1.0815361,"York, Yorkshire and the Humber, England, United Kingdom",112365
Yverdon,46.7610069,6.6349038,"Yverdon, A5, Gressy, Yverdon-les-Bains, District du Jura-Nord vaudois, Vaud, 1401, Switzerland",2712195449
Yverdon-les-Bains,46.7785711,6.6409158,"Yverdon-les-Bains, District du Jura-Nord vaudois, Vaud, Switzerland",151350097
Zagreb,45.8131545,15.9770298,"Zagreb, City of Zagreb, Croatia",151509715
Zographos,37.9738146,23.7926006890784,"Municipality of Zografos, Regional Unit of Central Athens, Attica, Attica Administration, Greece",2675193926
Zollikofen,46.9959463,7.4576417,"Zollikofen, Verwaltungskreis Bern-Mittelland, Bern, 3052, Switzerland",151328834
Zomba,-15.3863208,35.3268273,"Zomba, Southern Region, Malawi",829985
Zug,47.1661672,8.5154946,"Zug, Switzerland",ChIJ8-RGYCmrmkcREOrjxwO_UKk
Zürich,47.3768866,8.541694,"Zürich, Switzerland",ChIJGaK-SZcLkEcRA9wf5_GNbuY
Zürich Helsana Versicherungen AG,47.377503,8.544036,"Weinbergstrasse 5, 8000 Zürich, Switzerland",ChIJ10CPjKegmkcRcaC6cKmPO6M
Zürich Postauto Zürich,NA,NA,NA,NA
Zurzach,47.5865624,8.2944691,"Bad Zurzach, Bezirk Zurzach, Aargau, 5330, Switzerland",151329515
